{
    "location": [
        {   
            "type": "機場",
            "title": "福岡機場",
            "detail": "",
            "image": "",
            "link": "",
            "location": { "lat": 33.58579657492164, "lng": 130.4516206881607 }
        },
        {   
            "day": 1,
            "type": "觀賞楓葉",
            "title": "秋月城跡",
            "detail": "",
            "image": "",
            "link": "",
            "location": { "lat": 33.4722732192269, "lng": 130.69465188330133 }
        },
        {   
            "day": 1,
            "type": "觀賞楓葉",
            "title": "大興善寺",
            "detail": "",
            "image": "",
            "link": "",
            "location": { "lat": 33.430264384293736, "lng": 130.4962586016408 }
        },
        {   
            "day": 2,
            "type": "觀賞楓葉",
            "title": "雷山千如寺大悲王院",
            "detail": "",
            "image": "",
            "link": "",
            "location": { "lat": 33.49274741565331, "lng": 130.22895944657486 }
        },
        {   
            "day": 2,
            "type": "景點",
            "title": "虹之松原",
            "detail": "",
            "image": "",
            "link": "",
            "location": { "lat": 33.44232028559175, "lng": 129.99436170424568 }
        },
        {   
            "day": 2,
            "type": "景點",
            "title": "環境藝術之森",
            "detail": "",
            "image": "",
            "link": "",
            "location": { "lat": 33.35141222408268, "lng": 130.07590850020102 }
        },
        {   
            "day": 2,
            "type": "景點",
            "title": "御船山樂園",
            "detail": "",
            "image": "",
            "link": "",
            "location": { "lat": 33.182407377016794, "lng": 130.01797932075556 }
        },
        {   
            "day": 3,
            "type": "景點",
            "title": "雲仙岳",
            "detail": "",
            "image": "",
            "link": "",
            "location": { "lat": 32.782111886221834, "lng": 130.26678907619066 }
        },
        {   
            "day": 3,
            "type": "景點",
            "title": "仁田嶺",
            "detail": "",
            "image": "",
            "link": "",
            "location": { "lat": 32.75132495576746, "lng": 130.28464222601835 }
        },
        {   
            "day": 3,
            "type": "景點",
            "title": "湧水庭園四明莊",
            "detail": "",
            "image": "",
            "link": "",
            "location": { "lat": 32.784084090214265, "lng": 130.37063550607726 }
        },
        {   
            "day": 4,
            "type": "景點",
            "title": "高千穗峽",
            "detail": "",
            "image": "",
            "link": "",
            "location": { "lat": 32.692922371876186, "lng": 131.29892362444255 }
        },
        {   
            "day": 4,
            "type": "景點",
            "title": "久住高原",
            "detail": "",
            "image": "",
            "link": "",
            "location": { "lat": 33.03875953621477, "lng": 131.2209470129586 }
        },
        {   
            "day": 4,
            "type": "景點",
            "title": "Yamanami Highway 展望台",
            "detail": "",
            "image": "",
            "link": "",
            "location": { "lat": 33.08597707013656, "lng": 131.19372887695997 }
        },
        {   
            "day": 4,
            "type": "景點",
            "title": "九重 夢大橋",
            "detail": "",
            "image": "",
            "link": "",
            "location": { "lat": 33.169710788530985, "lng": 131.22425527358203 }
        },
        {   
            "day": 5,
            "type": "景點",
            "title": "鷹巣原高原",
            "detail": "",
            "image": "",
            "link": "",
            "location": { "lat": 33.48973752868404, "lng": 130.91974066117135 }
        },
        {   
            "day": 5,
            "type": "景點",
            "title": "英彥山神宮",
            "detail": "",
            "image": "",
            "link": "",
            "location": { "lat": 33.48676066933013, "lng": 130.91212755116038 }
        },
        {   
            "day": 5,
            "type": "景點",
            "title": "英彥山纜車",
            "detail": "",
            "image": "",
            "link": "",
            "location": { "lat": 33.48436206928518, "lng": 130.90419966892583 }
        },
        {   
            "day": 5,
            "type": "景點",
            "title": "御靈神社",
            "detail": "",
            "image": "",
            "link": "",
            "location": { "lat": 33.45710698101294, "lng": 131.13270621032854 }
        },
        {   
            "day": 5,
            "type": "景點",
            "title": "青之洞門",
            "detail": "",
            "image": "",
            "link": "",
            "location": { "lat": 33.50016546547744, "lng": 131.1718769175109 }
        },
        {   
            "day": 5,
            "type": "景點",
            "title": "深耶馬溪楓葉",
            "detail": "",
            "image": "",
            "link": "",
            "location": { "lat": 33.36676528158851, "lng": 131.19093657949844 }
        },
        {   
            "day": 6,
            "type": "景點",
            "title": "門司港懷舊",
            "detail": "",
            "image": "",
            "link": "",
            "location": { "lat": 33.94442019693677, "lng": 130.9621468354346 }
        },
        {   
            "day": 6,
            "type": "景點",
            "title": "下關火之山公園",
            "detail": "",
            "image": "",
            "link": "",
            "location": { "lat": 33.97170223450579, "lng": 130.96136795840667 }
        },
        { 
            "day": 6,  
            "type": "景點",
            "title": "吞山觀音寺",
            "detail": "",
            "image": "",
            "link": "",
            "location": { "lat": 33.65644545300199, "lng": 130.56740415498916 }
        }
    ]
}
