{
    "location": [
        {   
            "type": "機場",
            "title": "福岡機場",
            "detail": "",
            "image": "",
            "link": "",
            "location": { "lat": 33.58579657492164, "lng": 130.4516206881607 }
        },
        {   
            "day": 1,
            "type": "觀賞楓葉",
            "title": "秋月城跡",
            "detail": "",
            "image": "",
            "link": "",
            "location": { "lat": 33.4722732192269, "lng": 130.69465188330133 }
        },
        {   
            "day": 1,
            "type": "觀賞楓葉",
            "title": "大興善寺",
            "detail": "",
            "image": "",
            "link": "",
            "location": { "lat": 33.430264384293736, "lng": 130.4962586016408 }
        },
        {   
            "day": 2,
            "type": "觀賞楓葉",
            "title": "雷山千如寺大悲王院",
            "detail": "",
            "image": "",
            "link": "",
            "location": { "lat": 33.49274741565331, "lng": 130.22895944657486 }
        },
        {   
            "day": 2,
            "type": "景點",
            "title": "虹之松原",
            "detail": "",
            "image": "",
            "link": "",
            "location": { "lat": 33.44232028559175, "lng": 129.99436170424568 }
        }
        
    ]
}
